stop_id,stop_name,stop_lat,stop_lon
"8250DB003222","Loughlinstown Park, stop 3222","53.2466024812069","-6.12865680557182"
"8250DB003223","Loughlinstown Drive, stop 3223","53.2491504109891","-6.13293655553746"
"8250DB003224","Ashlawn, stop 3224","53.2519458475769","-6.13236519549721"
"8250DB003225","Ballybrack SC, stop 3225","53.2552948672851","-6.13385300991221"
"8250DB003226","Kilbogget Park, stop 3226","53.2585470715912","-6.13777355798243"
"8250DB003227","Auburn Drive, stop 3227","53.2619541741584","-6.13780539377764"
"8250DB003228","Church Road, stop 3228","53.2647542453765","-6.13465539470502"
"8250DB003229","Churchview Road, stop 3229","53.2653527759427","-6.13441945272899"
"8250DB007472","Killiney SC, stop 7472","53.2670680823354","-6.13662362130875"
"8250DB003230","Drumkeen Manor, stop 3230","53.2685015291178","-6.13920003918439"
"8250DB003232","Pearse Villas, stop 3232","53.271603968895","-6.14044473324485"
"8250DB003233","Pearse Street, stop 3233","53.2727414786546","-6.14134000425089"
"8250DB003234","Sallynoggin College, stop 3234","53.273603612972","-6.13956320637259"
"8250DB004462","Sallynoggin, stop 4462","53.2751672745563","-6.13781581797221"
"8250DB003235","Pearse Park, stop 3235","53.277180707391","-6.14069748612017"
"8250DB003236","Honey Park, stop 3236","53.2779835040123","-6.14030272461487"
"8250DB003237","Sarsfield Street, stop 3237","53.2791423584346","-6.13795791119735"
"8250DB003238","Holmston Avenue, stop 3238","53.283309733396","-6.13372719850771"
"8250DB003239","Crosthwaite Park, stop 3239","53.2843864951823","-6.13303533097992"
"8250DB003240","Corrig Road, stop 3240","53.2871718711238","-6.13124892862004"
"8250DB003068","George's St Upper, stop 3068","53.2898294885121","-6.13048790165208"
"8250DB003069","Corrig Avenue, stop 3069","53.2907530253444","-6.13263768269568"
"8250DB003070","Dun Laoghaire SC, stop 3070","53.2921151004321","-6.13581853383444"
"8250DB002041","St Michael's Hosp, stop 2041","53.2935976049862","-6.13923437692796"
"8250DB003071","De Vesci Park, stop 3071","53.2949847179943","-6.14518996894824"
"8250DB003072","Grosvenor Terrace, stop 3072","53.2941852190007","-6.14869006112065"
"8250DB003073","Monkstown Road, stop 3073","53.2937825861192","-6.1551882458193"
"8250DB003074","Drayton Close, stop 3074","53.2944930303395","-6.15928318174833"
"8250DB003075","Queen's Park, stop 3075","53.2948803787225","-6.16225195149105"
"8250DB003076","Montpellier Parade, stop 3076","53.2954328088593","-6.16602382283996"
"8250DB003077","Montpellier Manor, stop 3077","53.2959197205688","-6.16846336894464"
"8250DB003079","Newtown Avenue, stop 3079","53.2983074051895","-6.17059668522763"
"8250DB003080","St John's Church, stop 3080","53.3003614770485","-6.17442493292338"
"8250DB003081","Patrick's Row, stop 3081","53.3006104623412","-6.17777523438779"
"8250DB003084","Frascati SC, stop 3084","53.3013812515137","-6.18116341196197"
"8250DB000469","Rock Road, stop 469","53.3028457292126","-6.18407213264847"
"8250DB000470","Blackrock Clinic, stop 470","53.3056258500263","-6.18898110376377"
"8250DB000471","Blackrock College, stop 471","53.3068708073446","-6.19105929913705"
"8250DB000472","Booterstown Station, stop 472","53.3078820347442","-6.19491826731321"
"8250DB000473","Grotto Avenue, stop 473","53.3092405753985","-6.19738213927117"
"8250DB004705","St Helen's Road, stop 4705","53.3108182690603","-6.20007706605352"
"8250DB000475","Bellevue Avenue, stop 475","53.312706162538","-6.20188867460386"
"8220DB000476","Merrion Gates, stop 476","53.3157515263735","-6.20476252273258"
"8220DB000477","Herbert Avenue, stop 477","53.3168630546851","-6.20695232009327"
"8220DB000478","St Vincent's Hosp, stop 478","53.3181142989183","-6.21126782530883"
"8220DB000479","Merrion Centre, stop 479","53.3191439676238","-6.21340128669965"
"8220DB000480","Netherlands Embassy, stop 480","53.32084997999","-6.21628720536765"
"8220DB000481","Wanderers FC, stop 481","53.3223446397574","-6.21826644297952"
"8220DB000482","Shrewsbury Road, stop 482","53.3247277780876","-6.22196529496766"
"8220DB000483","British Embassy, stop 483","53.3259441074967","-6.22397148052323"
"8220DB000485","RDS Ballsbridge, stop 485","53.3282515101299","-6.22863497077614"
"8220DB000487","American Embassy, stop 487","53.3308552893834","-6.23390230837204"
"8220DB000488","Lansdowne Park, stop 488","53.333098554632","-6.23607694701102"
"8220DB000489","St Mary's Rd South, stop 489","53.3349420031478","-6.23735231265615"
"8220DB000490","Haddington Road, stop 490","53.3365738419154","-6.23890680600162"
"8220DB000491","Mount Street Bridge, stop 491","53.3378140535117","-6.24133351088669"
"8220DB000492","Mount Street Lower, stop 492","53.3385846851446","-6.24361446215904"
"8220DB000493","Holles Street, stop 493","53.3398534163799","-6.24737682273893"
"8220DB000494","Clare Street, stop 494","53.341435583359","-6.25168225233912"
"8220DB000495","Pearse Station, stop 495","53.3435913198155","-6.24974670516899"
"8220DB000400","Shaw Street, stop 400","53.344846483913","-6.25320984701663"
"8220DB000281","O'Connell St Upper, stop 281","53.3513435349612","-6.26111600843156"
"8220DB000004","Parnell Square West, stop 4","53.3525745131874","-6.26417548603793"
"8220DB004962","Mountjoy Square, stop 4962","53.3569939338404","-6.25843708602609"
"8250DB007639","Brides Glen Luas, stop 7639","53.2413989701175","-6.14307322913931"
"8250DB007640","Cherrywood Bus Pk, stop 7640","53.2433483504797","-6.14069624331021"
"8250DB005047","Valley Drive, stop 5047","53.2458119527354","-6.14016983992921"
"8250DB003224","Ashlawn, stop 3224","53.2519458475769","-6.13236519549721"
"8250DB003225","Ballybrack SC, stop 3225","53.2552948672851","-6.13385300991221"
"8250DB003226","Kilbogget Park, stop 3226","53.2585470715912","-6.13777355798243"
"8250DB003227","Auburn Drive, stop 3227","53.2619541741584","-6.13780539377764"
"8250DB003228","Church Road, stop 3228","53.2647542453765","-6.13465539470502"
"8250DB003229","Churchview Road, stop 3229","53.2653527759427","-6.13441945272899"
"8250DB007644","Sallyglen Road, stop 7644","53.2676424809739","-6.13484449848458"
"8250DB007645","Park Close, stop 7645","53.275100347506","-6.1346847150918"
"8250DB007646","Glenageary Avenue, stop 7646","53.2790894968991","-6.13572570551517"
"8250DB003238","Holmston Avenue, stop 3238","53.283309733396","-6.13372719850771"
"8250DB003239","Crosthwaite Park, stop 3239","53.2843864951823","-6.13303533097992"
"8250DB003240","Corrig Road, stop 3240","53.2871718711238","-6.13124892862004"
"8250DB003068","George's St Upper, stop 3068","53.2898294885121","-6.13048790165208"
"8250DB003069","Corrig Avenue, stop 3069","53.2907530253444","-6.13263768269568"
"8250DB003070","Dun Laoghaire SC, stop 3070","53.2921151004321","-6.13581853383444"
"8250DB002041","St Michael's Hosp, stop 2041","53.2935976049862","-6.13923437692796"
"8250DB003071","De Vesci Park, stop 3071","53.2949847179943","-6.14518996894824"
"8250DB003072","Grosvenor Terrace, stop 3072","53.2941852190007","-6.14869006112065"
"8250DB003073","Monkstown Road, stop 3073","53.2937825861192","-6.1551882458193"
"8250DB003074","Drayton Close, stop 3074","53.2944930303395","-6.15928318174833"
"8250DB003075","Queen's Park, stop 3075","53.2948803787225","-6.16225195149105"
"8250DB003076","Montpellier Parade, stop 3076","53.2954328088593","-6.16602382283996"
"8250DB003077","Montpellier Manor, stop 3077","53.2959197205688","-6.16846336894464"
"8250DB003084","Frascati SC, stop 3084","53.3013812515137","-6.18116341196197"
"8250DB000469","Rock Road, stop 469","53.3028457292126","-6.18407213264847"
"8250DB000470","Blackrock Clinic, stop 470","53.3056258500263","-6.18898110376377"
"8250DB000471","Blackrock College, stop 471","53.3068708073446","-6.19105929913705"
"8250DB000472","Booterstown Station, stop 472","53.3078820347442","-6.19491826731321"
"8250DB000473","Grotto Avenue, stop 473","53.3092405753985","-6.19738213927117"
"8250DB004705","St Helen's Road, stop 4705","53.3108182690603","-6.20007706605352"
"8250DB000475","Bellevue Avenue, stop 475","53.312706162538","-6.20188867460386"
"8220DB000476","Merrion Gates, stop 476","53.3157515263735","-6.20476252273258"
"8220DB000477","Herbert Avenue, stop 477","53.3168630546851","-6.20695232009327"
"8220DB000478","St Vincent's Hosp, stop 478","53.3181142989183","-6.21126782530883"
"8220DB000479","Merrion Centre, stop 479","53.3191439676238","-6.21340128669965"
"8220DB000480","Netherlands Embassy, stop 480","53.32084997999","-6.21628720536765"
"8220DB000481","Wanderers FC, stop 481","53.3223446397574","-6.21826644297952"
"8220DB000482","Shrewsbury Road, stop 482","53.3247277780876","-6.22196529496766"
"8220DB000483","British Embassy, stop 483","53.3259441074967","-6.22397148052323"
"8220DB000485","RDS Ballsbridge, stop 485","53.3282515101299","-6.22863497077614"
"8220DB000487","American Embassy, stop 487","53.3308552893834","-6.23390230837204"
"8220DB000488","Lansdowne Park, stop 488","53.333098554632","-6.23607694701102"
"8220DB000489","St Mary's Rd South, stop 489","53.3349420031478","-6.23735231265615"
"8220DB000490","Haddington Road, stop 490","53.3365738419154","-6.23890680600162"
"8220DB000491","Mount Street Bridge, stop 491","53.3378140535117","-6.24133351088669"
"8220DB000492","Mount Street Lower, stop 492","53.3385846851446","-6.24361446215904"
"8220DB000493","Holles Street, stop 493","53.3398534163799","-6.24737682273893"
"8220DB000494","Clare Street, stop 494","53.341435583359","-6.25168225233912"
"8220DB000495","Pearse Station, stop 495","53.3435913198155","-6.24974670516899"
"8220DB000400","Shaw Street, stop 400","53.344846483913","-6.25320984701663"
"8220DB000281","O'Connell St Upper, stop 281","53.3513435349612","-6.26111600843156"
"8220DB000004","Parnell Square West, stop 4","53.3525745131874","-6.26417548603793"
"8220DB004962","Mountjoy Square, stop 4962","53.3569939338404","-6.25843708602609"
"8220DB007149","IKEA, stop 7149","53.4072962623839","-6.27799727211912"
"8220DB007277","St Margaret's Road, stop 7277","53.4060008285976","-6.28041102974887"
"8220DB006363","Hampton Wood, stop 6363","53.4061452136716","-6.28795578802025"
"8220DB006361","Jamestown Road, stop 6361","53.4059486027501","-6.29179911788339"
"8220DB006367","Hampton Wood Road, stop 6367","53.4038763115708","-6.29144598182622"
"8220DB004985","Lanesborough Estate, stop 4985","53.402320989219","-6.29141806931841"
"8240DB006219","St Margaret's Road, stop 6219","53.3998364912388","-6.29303653633851"
"8240DB006229","Melville, stop 6229","53.4020463209123","-6.29861797097506"
"8240DB006364","Century Business Pk, stop 6364","53.4025827574796","-6.30157442717954"
"8220DB001558","McKelvey Avenue, stop 1558","53.3998175109952","-6.30305309451753"
"8220DB004542","Finglas Road, stop 4542","53.3866641413239","-6.29709664327809"
"8220DB001531","Clearwater SC, stop 1531","53.3837436640296","-6.29336474093081"
"8220DB001532","Prospect Hill, stop 1532","53.3817441172312","-6.29055850090001"
"8220DB001533","Tolka Vale, stop 1533","53.3789678847602","-6.28749808800206"
"8220DB001534","Ballyboggan Road, stop 1534","53.3753328391602","-6.28597560287492"
"8220DB001535","The Willows, stop 1535","53.3723059581397","-6.28236994393795"
"8220DB001536","Glasnevin Cemetery, stop 1536","53.3695033971709","-6.27687723281354"
"8220DB001537","St Vincent's School, stop 1537","53.3680662049802","-6.27320839893696"
"8220DB000186","Lindsay Grove, stop 186","53.3653553426373","-6.27158997755113"
"8220DB000187","Phibsborough Road, stop 187","53.3627342523627","-6.27244736533827"
"8220DB000188","North Circular Road, stop 188","53.3601206877577","-6.27258314915006"
"8220DB000189","Fire Station, stop 189","53.3571674394906","-6.27346881555335"
"8220DB000190","Broadstone, stop 190","53.3551257304168","-6.2733710740057"
"8220DB000191","Western Way, stop 191","53.3550179485778","-6.26903378050287"
"8220DB000819","Blessington Street, stop 819","53.3563040208513","-6.26599198569768"
"8220DB000264","Parnell Square East, stop 264","53.3535353026736","-6.26225862681687"
"8220DB006059","The Spire of Dublin, stop 6059","53.3502244282738","-6.26018517538047"
"8220DB000334","D'Olier Street, stop 334","53.3465811562075","-6.25812559112211"
"8220DB007581","Dame Street, stop 7581","53.3441585614977","-6.26334590761396"
"8220DB001283","S Great George's St, stop 1283","53.3418087219088","-6.26492822950029"
"8220DB007579","Redmond's Hill, stop 7579","53.3382457820909","-6.26591384363467"
"8220DB001285","Camden Street Lower, stop 1285","53.3343784055905","-6.26512475425716"
"8220DB001016","South Richmond St, stop 1016","53.3311593141903","-6.26441458035507"
"8220DB001017","Rathmines Rd Lower, stop 1017","53.3292996511616","-6.26447506533579"
"8220DB001018","St Mary's College, stop 1018","53.3275854590935","-6.26464974527369"
"8220DB001019","Military Road, stop 1019","53.3265475976236","-6.26497711774675"
"8220DB001020","Rathmines, stop 1020","53.3251383837983","-6.26510936447961"
"8220DB001076","Swan Centre, stop 1076","53.3231305919137","-6.26549106260878"
"8220DB001021","Rathmines Rd Upper, stop 1021","53.3213802466097","-6.26565212597855"
"8220DB006042","Church Avenue, stop 6042","53.3201481073068","-6.26498157906185"
"8220DB001022","Summerville Park, stop 1022","53.3195217438279","-6.26455667416159"
"8220DB001023","Rathmines Close, stop 1023","53.3170461890208","-6.26491228899517"
"8220DB001024","Frankfort Avenue, stop 1024","53.3158523430772","-6.26502075611143"
"8220DB000895","Palmeston Villas, stop 895","53.3139322642602","-6.26401801846624"
"ONIGHT-STOP1","Test stop for overnight trip, stop 1","53.3170461890208","-6.26491228899517"
"ONIGHT-STOP2","Test stop for overnight trip, stop 2","53.3158523430772","-6.26502075611143"
